{
  "type":"FeatureCollection",
  "features":[
    {
      "type":"Feature",
      "id":"Aimag_center.1",
      "geometry":{
        "type":"Point",
        "coordinates":[
          106.28722689587296,
          45.790984438918315
        ]
      },
      "geometry_name":"the_geom",
      "properties":{
        "NAME":"Mandalgovi",
        "POP":13979,
        "AIMAG_ID":12
      }
    },
    {
      "type":"Feature",
      "id":"Aimag_center.2",
      "geometry":{
        "type":"Point",
        "coordinates":[
          110.68003996671204,
          47.336988906074204
        ]
      },
      "geometry_name":"the_geom",
      "properties":{
        "NAME":"Ondorhaan",
        "POP":16380,
        "AIMAG_ID":16
      }
    },
    {
      "type":"Feature",
      "id":"Aimag_center.3",
      "geometry":{
        "type":"Point",
        "coordinates":[
          114.51689442985334,
          48.05940842373369
        ]
      },
      "geometry_name":"the_geom",
      "properties":{
        "NAME":"Choilbalsan",
        "POP":38781,
        "AIMAG_ID":15
      }
    },
    {
      "type":"Feature",
      "id":"Aimag_center.4",
      "geometry":{
        "type":"Point",
        "coordinates":[
          113.28921325233999,
          46.67312565149694
        ]
      },
      "geometry_name":"the_geom",
      "properties":{
        "NAME":"Baruunurt",
        "POP":14244,
        "AIMAG_ID":14
      }
    },
    {
      "type":"Feature",
      "id":"Aimag_center.5",
      "geometry":{
        "type":"Point",
        "coordinates":[
          110.13563981084918,
          44.888602342688294
        ]
      },
      "geometry_name":"the_geom",
      "properties":{
        "NAME":"Sainshand",
        "POP":18296,
        "AIMAG_ID":13
      }
    },
    {
      "type":"Feature",
      "id":"Aimag_center.6",
      "geometry":{
        "type":"Point",
        "coordinates":[
          108.36778959918507,
          46.36359560533958
        ]
      },
      "geometry_name":"the_geom",
      "properties":{
        "NAME":"Choir",
        "POP":9207,
        "AIMAG_ID":22
      }
    },
    {
      "type":"Feature",
      "id":"Aimag_center.7",
      "geometry":{
        "type":"Point",
        "coordinates":[
          104.43192537507767,
          43.57814849805164
        ]
      },
      "geometry_name":"the_geom",
      "properties":{
        "NAME":"Dalanzadgad",
        "POP":13966,
        "AIMAG_ID":11
      }
    },
    {
      "type":"Feature",
      "id":"Aimag_center.8",
      "geometry":{
        "type":"Point",
        "coordinates":[
          106.95028566637176,
          47.71197806109628
        ]
      },
      "geometry_name":"the_geom",
      "properties":{
        "NAME":"Zuunmod",
        "POP":14521,
        "AIMAG_ID":19
      }
    },
    {
      "type":"Feature",
      "id":"Aimag_center.9",
      "geometry":{
        "type":"Point",
        "coordinates":[
          105.94979980323214,
          49.41127626421326
        ]
      },
      "geometry_name":"the_geom",
      "properties":{
        "NAME":"Darkhan",
        "POP":70029,
        "AIMAG_ID":23
      }
    },
    {
      "type":"Feature",
      "id":"Aimag_center.10",
      "geometry":{
        "type":"Point",
        "coordinates":[
          106.2131329834099,
          50.22235219704985
        ]
      },
      "geometry_name":"the_geom",
      "properties":{
        "NAME":"Sukhbaatar",
        "POP":21076,
        "AIMAG_ID":17
      }
    },
    {
      "type":"Feature",
      "id":"Aimag_center.11",
      "geometry":{
        "type":"Point",
        "coordinates":[
          104.18982638385151,
          49.0821640692243
        ]
      },
      "geometry_name":"the_geom",
      "properties":{
        "NAME":"Erdenet",
        "POP":75752,
        "AIMAG_ID":20
      }
    },
    {
      "type":"Feature",
      "id":"Aimag_center.12",
      "geometry":{
        "type":"Point",
        "coordinates":[
          103.5316771765783,
          48.80207387648326
        ]
      },
      "geometry_name":"the_geom",
      "properties":{
        "NAME":"Bulgan",
        "POP":12604,
        "AIMAG_ID":10
      }
    },
    {
      "type":"Feature",
      "id":"Aimag_center.13",
      "geometry":{
        "type":"Point",
        "coordinates":[
          102.78394613692603,
          46.264175872010256
        ]
      },
      "geometry_name":"the_geom",
      "properties":{
        "NAME":"Arvaikheer",
        "POP":21568,
        "AIMAG_ID":9
      }
    },
    {
      "type":"Feature",
      "id":"Aimag_center.14",
      "geometry":{
        "type":"Point",
        "coordinates":[
          100.74379753563494,
          46.24129568468151
        ]
      },
      "geometry_name":"the_geom",
      "properties":{
        "NAME":"Bayankhongor",
        "POP":25150,
        "AIMAG_ID":8
      }
    },
    {
      "type":"Feature",
      "id":"Aimag_center.15",
      "geometry":{
        "type":"Point",
        "coordinates":[
          101.46502703716232,
          47.459662901766926
        ]
      },
      "geometry_name":"the_geom",
      "properties":{
        "NAME":"Tsetserleg",
        "POP":17941,
        "AIMAG_ID":7
      }
    },
    {
      "type":"Feature",
      "id":"Aimag_center.16",
      "geometry":{
        "type":"Point",
        "coordinates":[
          100.1672830908012,
          49.64133625130834
        ]
      },
      "geometry_name":"the_geom",
      "properties":{
        "NAME":"Moron",
        "POP":32658,
        "AIMAG_ID":6
      }
    },
    {
      "type":"Feature",
      "id":"Aimag_center.17",
      "geometry":{
        "type":"Point",
        "coordinates":[
          96.85099017449832,
          47.713211334002864
        ]
      },
      "geometry_name":"the_geom",
      "properties":{
        "NAME":"Uliastai",
        "POP":16618,
        "AIMAG_ID":5
      }
    },
    {
      "type":"Feature",
      "id":"Aimag_center.18",
      "geometry":{
        "type":"Point",
        "coordinates":[
          96.221897720709,
          46.389935942026874
        ]
      },
      "geometry_name":"the_geom",
      "properties":{
        "NAME":"Altai",
        "POP":18932,
        "AIMAG_ID":3
      }
    },
    {
      "type":"Feature",
      "id":"Aimag_center.19",
      "geometry":{
        "type":"Point",
        "coordinates":[
          91.63976083525682,
          48.005839769331345
        ]
      },
      "geometry_name":"the_geom",
      "properties":{
        "NAME":"Hovd",
        "POP":28968,
        "AIMAG_ID":2
      }
    },
    {
      "type":"Feature",
      "id":"Aimag_center.20",
      "geometry":{
        "type":"Point",
        "coordinates":[
          92.0687413802128,
          49.97980173313009
        ]
      },
      "geometry_name":"the_geom",
      "properties":{
        "NAME":"Ulaangom",
        "POP":25163,
        "AIMAG_ID":4
      }
    },
    {
      "type":"Feature",
      "id":"Aimag_center.21",
      "geometry":{
        "type":"Point",
        "coordinates":[
          89.97393606770474,
          48.964994095289846
        ]
      },
      "geometry_name":"the_geom",
      "properties":{
        "NAME":"Ulgii",
        "POP":28551,
        "AIMAG_ID":1
      }
    },
    {
      "type":"Feature",
      "id":"Aimag_center.22",
      "geometry":{
        "type":"Point",
        "coordinates":[
          106.90820332958562,
          47.922437969457015
        ]
      },
      "geometry_name":"the_geom",
      "properties":{
        "NAME":"UB",
        "POP":821796,
        "AIMAG_ID":21
      }
    }
  ],
  "crs":{
    "type":"EPSG",
    "properties":{
      "code":"4326"
    }
  }
}
